/*
 * ------------------------------------------------------------
 * IMPORTANT: The contents of this file are auto-generated.
 *
 * This file may be updated by the Shopify admin theme editor
 * or related systems. Please exercise caution as any changes
 * made to this file may be overwritten.
 * ------------------------------------------------------------
 */
{
  "sections": {
    "main": {
      "type": "main-page",
      "settings": {
        "padding_top": 28,
        "padding_bottom": 28
      }
    },
    "retailers_data_9wV6H8": {
      "type": "retailers-data",
      "blocks": {
        "retailer_ikaf57": {
          "type": "retailer",
          "settings": {
            "shop": "Princess",
            "address": "Lange Gasthuisstraat 12",
            "zip": "2000",
            "city": "Antwerpen",
            "country": "Belgium",
            "lat": "51.2175",
            "long": "4.4028",
            "url": "https://www.princess.eu"
          }
        },
        "retailer_lq23v2": {
          "type": "retailer",
          "settings": {
            "shop": "Princess",
            "address": "Zeedijk-Het Zoute 807",
            "zip": "8300",
            "city": "Knokke-Heist",
            "country": "Belgium",
            "lat": "51.3408",
            "long": "3.2805",
            "url": "https://www.princess.eu"
          }
        },
        "retailer_cshi5q": {
          "type": "retailer",
          "settings": {
            "shop": "Kelly",
            "address": "George Brugmannplein 36",
            "zip": "1050",
            "city": "Brussel",
            "country": "Belgium",
            "lat": "50.8175",
            "long": "4.3552",
            "url": "https://www.kellyshop.be"
          }
        },
        "retailer_zcb27p": {
          "type": "retailer",
          "settings": {
            "shop": "Frau",
            "address": "Dorp-West 114",
            "zip": "9080",
            "city": "Lochristi",
            "country": "Belgium",
            "lat": "51.0972",
            "long": "3.8358",
            "url": "https://www.frau.boutique"
          }
        },
        "retailer_l6cxsz": {
          "type": "retailer",
          "settings": {
            "shop": "John's Boetiek",
            "address": "Kortrijkstraat 50",
            "zip": "9800",
            "city": "Deinze",
            "country": "Belgium",
            "lat": "50.9820",
            "long": "3.5312",
            "url": ""
          }
        },
        "retailer_plg0vg": {
          "type": "retailer",
          "settings": {
            "shop": "Harlekijn",
            "address": "Onze-Lieve-Vrouwestraat 121",
            "zip": "2800",
            "city": "Mechelen",
            "country": "Belgium",
            "lat": "51.0228",
            "long": "4.4809",
            "url": "https://www.harlekijnmechelen.be"
          }
        },
        "retailer_2u3u3c": {
          "type": "retailer",
          "settings": {
            "shop": "Feliz Concept Store",
            "address": "Wampenberg 23",
            "zip": "2370",
            "city": "Arendonk",
            "country": "Belgium",
            "lat": "51.3205",
            "long": "5.0820",
            "url": "https://www.felizconceptstore.be"
          }
        },
        "retailer_f5tr7h": {
          "type": "retailer",
          "settings": {
            "shop": "Manufactuur",
            "address": "Lembergsesteenweg 136",
            "zip": "9820",
            "city": "Merelbeke-Melle",
            "country": "Belgium",
            "lat": "51.0005",
            "long": "3.7805",
            "url": "https://www.manufactuur.be"
          }
        },
        "retailer_9465jn": {
          "type": "retailer",
          "settings": {
            "shop": "Manou",
            "address": "Steenhouwersvest 33",
            "zip": "2000",
            "city": "Antwerpen",
            "country": "Belgium",
            "lat": "51.2205",
            "long": "4.4005",
            "url": "https://www.manouantwerp.com"
          }
        },
        "retailer_n504qj": {
          "type": "retailer",
          "settings": {
            "shop": "Dawance",
            "address": "Avenue de Spa 100",
            "zip": "4802",
            "city": "Verviers",
            "country": "Belgium",
            "lat": "50.5905",
            "long": "5.8605",
            "url": "https://www.dawance.eu"
          }
        },
        "retailer_p11wrf": {
          "type": "retailer",
          "settings": {
            "shop": "Caress",
            "address": "Dokter Roosensplein 43",
            "zip": "2930",
            "city": "Brasschaat",
            "country": "Belgium",
            "lat": "51.2905",
            "long": "4.4905",
            "url": "https://www.caress.be"
          }
        },
        "retailer_eyxc9g": {
          "type": "retailer",
          "settings": {
            "shop": "Ko.Shu",
            "address": "Solleveld 30",
            "zip": "9550",
            "city": "Herzele",
            "country": "Belgium",
            "lat": "50.8905",
            "long": "3.8505",
            "url": "https://www.koshu.be"
          }
        },
        "retailer_n48eed": {
          "type": "retailer",
          "settings": {
            "shop": "Niinsky Mode",
            "address": "Sint Jacobsstraat 5",
            "zip": "8911 HR",
            "city": "Leeuwarden",
            "country": "Netherlands",
            "lat": "53.2015",
            "long": "5.7995",
            "url": "https://www.niinsky.nl"
          }
        },
        "retailer_q95hui": {
          "type": "retailer",
          "settings": {
            "shop": "Heemels",
            "address": "Binnenweg 180",
            "zip": "2101 JS",
            "city": "Heemstede",
            "country": "Netherlands",
            "lat": "52.3505",
            "long": "4.6205",
            "url": "https://www.heemelsmode.nl"
          }
        },
        "retailer_mzlmvj": {
          "type": "retailer",
          "settings": {
            "shop": "Matchbox",
            "address": "1 Psihari str Neo Psihiko",
            "zip": "154 51",
            "city": "Athens",
            "country": "Greece",
            "lat": "38.0025",
            "long": "23.7825",
            "url": "https://www.matchboxathens.com"
          }
        },
        "retailer_6qogrv": {
          "type": "retailer",
          "settings": {
            "shop": "Orfanidis",
            "address": "27 Kolokotroni str",
            "zip": "105 62",
            "city": "Athens",
            "country": "Greece",
            "lat": "37.9755",
            "long": "23.7325",
            "url": ""
          }
        },
        "retailer_nv0y3b": {
          "type": "retailer",
          "settings": {
            "shop": "La Suite",
            "address": "68 Rue du Vieux Village",
            "zip": "74260",
            "city": "Les Gets",
            "country": "France",
            "lat": "46.1555",
            "long": "6.6705",
            "url": ""
          }
        },
        "retailer_0jkzxh": {
          "type": "retailer",
          "settings": {
            "shop": "Ma Première Boutique",
            "address": "14 Rue du Petit Saint-Jean",
            "zip": "34000",
            "city": "Montpellier",
            "country": "France",
            "lat": "43.6105",
            "long": "3.8805",
            "url": "https://www.mapremiereboutique.fr"
          }
        },
        "retailer_qwce9t": {
          "type": "retailer",
          "settings": {
            "shop": "Boutique Zazie",
            "address": "25 Rue de la République",
            "zip": "84800",
            "city": "L'Isle-sur-la-Sorgue",
            "country": "France",
            "lat": "43.9205",
            "long": "5.1205",
            "url": ""
          }
        },
        "retailer_5djhfb": {
          "type": "retailer",
          "settings": {
            "shop": "Luxstore",
            "address": "8 Rue Emmanuel Arène",
            "zip": "20000",
            "city": "Ajaccio",
            "country": "France",
            "lat": "41.9205",
            "long": "8.7405",
            "url": "https://www.luxstore.fr"
          }
        },
        "retailer_r8j6qq": {
          "type": "retailer",
          "settings": {
            "shop": "Titaibi",
            "address": "3 Avenue du Verger",
            "zip": "62520",
            "city": "Le Touquet-Paris-Plage",
            "country": "France",
            "lat": "50.5205",
            "long": "1.5905",
            "url": "https://www.laboutiquetitaibi.com"
          }
        },
        "retailer_ahbevb": {
          "type": "retailer",
          "settings": {
            "shop": "Titaibi",
            "address": "61 Rue Carnot",
            "zip": "62930",
            "city": "Wimereux",
            "country": "France",
            "lat": "50.7705",
            "long": "1.6105",
            "url": "https://www.laboutiquetitaibi.com"
          }
        },
        "retailer_vy8nmc": {
          "type": "retailer",
          "settings": {
            "shop": "Paloca Store",
            "address": "51 Rue de Moscou",
            "zip": "62520",
            "city": "Le Touquet-Paris-Plage",
            "country": "France",
            "lat": "50.5205",
            "long": "1.5905",
            "url": "https://www.paloca.fr"
          }
        },
        "retailer_p6dcos": {
          "type": "retailer",
          "settings": {
            "shop": "Blush Concept Store",
            "address": "3 Rue des Quatre Chapeaux",
            "zip": "69002",
            "city": "Lyon",
            "country": "France",
            "lat": "45.7605",
            "long": "4.8305",
            "url": "https://www.blush-conceptstore.com"
          }
        },
        "retailer_d6bw5h": {
          "type": "retailer",
          "settings": {
            "shop": "Oxygene",
            "address": "19 Rue des Boulangers",
            "zip": "68100",
            "city": "Mulhouse",
            "country": "France",
            "lat": "47.7505",
            "long": "7.3405",
            "url": "https://www.boutiqueoxygene.com"
          }
        },
        "retailer_h4s9ov": {
          "type": "retailer",
          "settings": {
            "shop": "La Cabane Plaza",
            "address": "1 Boulevard Frédéric Mistral",
            "zip": "83120",
            "city": "Saint-Maxime",
            "country": "France",
            "lat": "43.3105",
            "long": "6.6405",
            "url": ""
          }
        },
        "retailer_a7przh": {
          "type": "retailer",
          "settings": {
            "shop": "Fati Fati Concept Store",
            "address": "18 Rue de Sault",
            "zip": "38000",
            "city": "Grenoble",
            "country": "France",
            "lat": "45.1905",
            "long": "5.7205",
            "url": ""
          }
        },
        "retailer_jhylf8": {
          "type": "retailer",
          "settings": {
            "shop": "Di Mare",
            "address": "Pôle d'activités",
            "zip": "20166",
            "city": "Porticcio",
            "country": "France",
            "lat": "41.8805",
            "long": "8.8005",
            "url": ""
          }
        },
        "retailer_begqpb": {
          "type": "retailer",
          "settings": {
            "shop": "La Boutique",
            "address": "32 Rue du Bourg",
            "zip": "21000",
            "city": "Dijon",
            "country": "France",
            "lat": "47.3205",
            "long": "5.0405",
            "url": ""
          }
        },
        "retailer_3cil4d": {
          "type": "retailer",
          "settings": {
            "shop": "By dé Bo",
            "address": "22 Rue Jacques d'Uzès",
            "zip": "33700",
            "city": "Uzès",
            "country": "France",
            "lat": "44.0105",
            "long": "4.4205",
            "url": ""
          }
        },
        "retailer_n6sblw": {
          "type": "retailer",
          "settings": {
            "shop": "L'Atelier 31",
            "address": "31 Route de Gordes",
            "zip": "84220",
            "city": "Coustellet",
            "country": "France",
            "lat": "43.8605",
            "long": "5.2005",
            "url": ""
          }
        },
        "retailer_twilut": {
          "type": "retailer",
          "settings": {
            "shop": "Spontini",
            "address": "1 Rue Sainte-Hilaire",
            "zip": "94120",
            "city": "La Varenne Sainte-Hilaire",
            "country": "France",
            "lat": "48.8205",
            "long": "2.4805",
            "url": "https://www.spontini.fr"
          }
        },
        "retailer_ichg1d": {
          "type": "retailer",
          "settings": {
            "shop": "Paula",
            "address": "93 Avenue de Bourbon",
            "zip": "97460",
            "city": "Saint-Paul",
            "country": "France",
            "lat": "-21.0105",
            "long": "55.2705",
            "url": ""
          }
        },
        "retailer_sf3z15": {
          "type": "retailer",
          "settings": {
            "shop": "Capucine",
            "address": "4 Place du Marché des Trois Six",
            "zip": "34120",
            "city": "Pézenas",
            "country": "France",
            "lat": "43.4605",
            "long": "3.4205",
            "url": ""
          }
        },
        "retailer_c9ul36": {
          "type": "retailer",
          "settings": {
            "shop": "J'entends le loup",
            "address": "4 Quai de la Prée",
            "zip": "17590",
            "city": "Ars-en-Ré",
            "country": "France",
            "lat": "46.2105",
            "long": "-1.5005",
            "url": ""
          }
        },
        "retailer_ngytrc": {
          "type": "retailer",
          "settings": {
            "shop": "J'entends le loup",
            "address": "17 Rue du Minage",
            "zip": "17000",
            "city": "La Rochelle",
            "country": "France",
            "lat": "46.1605",
            "long": "-1.1505",
            "url": ""
          }
        },
        "retailer_h1wnvf": {
          "type": "retailer",
          "settings": {
            "shop": "Snob",
            "address": "45 Rue Marceau",
            "zip": "37000",
            "city": "Tours",
            "country": "France",
            "lat": "47.3905",
            "long": "0.6905",
            "url": ""
          }
        },
        "retailer_gtlnyf": {
          "type": "retailer",
          "settings": {
            "shop": "L'Ylang",
            "address": "18 Rue du Général de Gaulle",
            "zip": "20137",
            "city": "Porto-Vecchio",
            "country": "France",
            "lat": "41.5905",
            "long": "9.2805",
            "url": ""
          }
        },
        "retailer_9mk2tx": {
          "type": "retailer",
          "settings": {
            "shop": "AB33",
            "address": "33 Rue Charlot",
            "zip": "75003",
            "city": "Paris",
            "country": "France",
            "lat": "48.8605",
            "long": "2.3605",
            "url": "https://www.ab33.fr"
          }
        },
        "retailer_wt4pv3": {
          "type": "retailer",
          "settings": {
            "shop": "Club 55",
            "address": "43 Boulevard Patch",
            "zip": "83350",
            "city": "Ramatuelle",
            "country": "France",
            "lat": "43.2105",
            "long": "6.5805",
            "url": "https://www.club55.fr"
          }
        },
        "retailer_ma8j3c": {
          "type": "retailer",
          "settings": {
            "shop": "Nude",
            "address": "16 Boulevard Edouard Baudoin",
            "zip": "06160",
            "city": "Juan-les-Pins",
            "country": "France",
            "lat": "43.5705",
            "long": "7.1105",
            "url": ""
          }
        },
        "retailer_gu5tfz": {
          "type": "retailer",
          "settings": {
            "shop": "Moma",
            "address": "38 Rue des Forges",
            "zip": "21000",
            "city": "Dijon",
            "country": "France",
            "lat": "47.3205",
            "long": "5.0405",
            "url": ""
          }
        },
        "retailer_py2607": {
          "type": "retailer",
          "settings": {
            "shop": "Gipsy James",
            "address": "49 Rue de la liberté",
            "zip": "97150",
            "city": "Saint-Martin",
            "country": "Netherlands",
            "lat": "18.0705",
            "long": "-63.0805",
            "url": ""
          }
        },
        "retailer_e7cbkr": {
          "type": "retailer",
          "settings": {
            "shop": "Les Cocottes",
            "address": "76 Boulevard du Chaudron",
            "zip": "97490",
            "city": "Saint-Denis - Réunion",
            "country": "France",
            "lat": "-20.9000384",
            "long": "55.4944505",
            "url": ""
          }
        },
        "retailer_m7xmxt": {
          "type": "retailer",
          "settings": {
            "shop": "La Plaza Cosy",
            "address": "12 Rue Louis Martin",
            "zip": "83420",
            "city": "La Croix-Valmer",
            "country": "France",
            "lat": "43.2005",
            "long": "6.5705",
            "url": ""
          }
        },
        "retailer_k1altt": {
          "type": "retailer",
          "settings": {
            "shop": "Tentation",
            "address": "Résidence du Port",
            "zip": "20217",
            "city": "Saint-Florent",
            "country": "France",
            "lat": "42.6705",
            "long": "9.3005",
            "url": ""
          }
        },
        "retailer_9lnpiw": {
          "type": "retailer",
          "settings": {
            "shop": "Alba",
            "address": "Torraccia",
            "zip": "20130",
            "city": "Cargèse",
            "country": "France",
            "lat": "42.1305",
            "long": "8.5905",
            "url": ""
          }
        },
        "retailer_9zp6hr": {
          "type": "retailer",
          "settings": {
            "shop": "Vestiras",
            "address": "Carrer de Sant Pere 2",
            "zip": "17255",
            "city": "Begur",
            "country": "Spain",
            "lat": "41.9505",
            "long": "3.2105",
            "url": ""
          }
        },
        "retailer_fb56ic": {
          "type": "retailer",
          "settings": {
            "shop": "Mad",
            "address": "Rambla de Catalunya 107",
            "zip": "08008",
            "city": "Barcelona",
            "country": "Spain",
            "lat": "41.3905",
            "long": "2.1605",
            "url": ""
          }
        },
        "retailer_ioabfq": {
          "type": "retailer",
          "settings": {
            "shop": "Dandelion",
            "address": "Carrer del Tenor Viñas 12",
            "zip": "08021",
            "city": "Barcelona",
            "country": "Spain",
            "lat": "41.4005",
            "long": "2.1505",
            "url": ""
          }
        },
        "retailer_6tilnb": {
          "type": "retailer",
          "settings": {
            "shop": "Boto & Co",
            "address": "Carrer de Bonavista 3",
            "zip": "08012",
            "city": "Barcelona",
            "country": "Spain",
            "lat": "41.4005",
            "long": "2.1605",
            "url": ""
          }
        },
        "retailer_0pujx7": {
          "type": "retailer",
          "settings": {
            "shop": "Pour Toi",
            "address": "Carrer de Salvador Lluch 7",
            "zip": "08850",
            "city": "Barcelona",
            "country": "Spain",
            "lat": "41.3005",
            "long": "2.0005",
            "url": ""
          }
        },
        "retailer_6gz867": {
          "type": "retailer",
          "settings": {
            "shop": "Itsomi",
            "address": "Av. De la Marina 14",
            "zip": "11310",
            "city": "Sotogrande",
            "country": "Spain",
            "lat": "36.2805",
            "long": "-5.2905",
            "url": ""
          }
        },
        "retailer_egc921": {
          "type": "retailer",
          "settings": {
            "shop": "BLiNk",
            "address": "Carrer de Ramon Llull 11",
            "zip": "07860",
            "city": "Sant Francesc de Formentera",
            "country": "Spain",
            "lat": "38.7005",
            "long": "1.4305",
            "url": ""
          }
        },
        "retailer_53jxzo": {
          "type": "retailer",
          "settings": {
            "shop": "Noss",
            "address": "Carrer del Bisbe Azare 2",
            "zip": "07800",
            "city": "Ibiza",
            "country": "Spain",
            "lat": "38.9105",
            "long": "1.4305",
            "url": ""
          }
        },
        "retailer_1cqu40": {
          "type": "retailer",
          "settings": {
            "shop": "Kala",
            "address": "Carrer del Rosari 29",
            "zip": "07701",
            "city": "Menorca",
            "country": "Spain",
            "lat": "39.8905",
            "long": "4.2605",
            "url": ""
          }
        },
        "retailer_9v4i6i": {
          "type": "retailer",
          "settings": {
            "shop": "Tommy",
            "address": "Carrer de Gràcia 45",
            "zip": "08201",
            "city": "Sabadell",
            "country": "Spain",
            "lat": "41.5505",
            "long": "2.1105",
            "url": ""
          }
        },
        "retailer_smby62": {
          "type": "retailer",
          "settings": {
            "shop": "Il Baco di Seta",
            "address": "Carrer del Comte de Salvatierra 34",
            "zip": "46004",
            "city": "Valencia",
            "country": "Spain",
            "lat": "39.4705",
            "long": "-0.3705",
            "url": ""
          }
        },
        "retailer_ccdgxa": {
          "type": "retailer",
          "settings": {
            "shop": "Zoe",
            "address": "C/ de la Nau 28",
            "zip": "46003",
            "city": "Valencia",
            "country": "Spain",
            "lat": "39.4705",
            "long": "-0.3805",
            "url": ""
          }
        },
        "retailer_rfzi1i": {
          "type": "retailer",
          "settings": {
            "shop": "Maria Nava",
            "address": "Av. Del Dr. Gadea 19",
            "zip": "03003",
            "city": "Alicante",
            "country": "Spain",
            "lat": "38.3405",
            "long": "-0.4805",
            "url": ""
          }
        },
        "retailer_xonqh3": {
          "type": "retailer",
          "settings": {
            "shop": "Maria Alonso",
            "address": "C. Felipe Gorriti 23 bis",
            "zip": "31004",
            "city": "Pamplona",
            "country": "Spain",
            "lat": "42.8205",
            "long": "-1.6405",
            "url": ""
          }
        },
        "retailer_ppu08j": {
          "type": "retailer",
          "settings": {
            "shop": "Yuppi",
            "address": "Carrer Pintor Domènech i Farré 2-4 A",
            "zip": "08320",
            "city": "Barcelona",
            "country": "Spain",
            "lat": "41.4805",
            "long": "2.3105",
            "url": ""
          }
        },
        "retailer_i4cyqr": {
          "type": "retailer",
          "settings": {
            "shop": "Pez",
            "address": "C. de Reguerros 15",
            "zip": "28004",
            "city": "Madrid",
            "country": "Spain",
            "lat": "40.4205",
            "long": "-3.7005",
            "url": ""
          }
        },
        "retailer_inlqfw": {
          "type": "retailer",
          "settings": {
            "shop": "Leto",
            "address": "C. de Jorge Juan 14",
            "zip": "28001",
            "city": "Madrid",
            "country": "Spain",
            "lat": "40.4205",
            "long": "-3.6805",
            "url": ""
          }
        },
        "retailer_qhjfcb": {
          "type": "retailer",
          "settings": {
            "shop": "Cedry",
            "address": "Toribio Etxebarria Kalea 19",
            "zip": "20600",
            "city": "Eibar",
            "country": "Spain",
            "lat": "43.1805",
            "long": "-2.4705",
            "url": ""
          }
        },
        "retailer_5fjpt9": {
          "type": "retailer",
          "settings": {
            "shop": "Blanca",
            "address": "Correhuela 17",
            "zip": "37001",
            "city": "Salamanca",
            "country": "Spain",
            "lat": "40.9605",
            "long": "-5.6605",
            "url": ""
          }
        },
        "retailer_lxpyyi": {
          "type": "retailer",
          "settings": {
            "shop": "Alberta",
            "address": "Carrer d'Alloza 32",
            "zip": "12001",
            "city": "Castellon",
            "country": "Spain",
            "lat": "39.9805",
            "long": "-0.0405",
            "url": ""
          }
        },
        "retailer_fppa2f": {
          "type": "retailer",
          "settings": {
            "shop": "Mequieres",
            "address": "Calle Ntra. Sra. De la Luz 22A",
            "zip": "11380",
            "city": "Tarifa",
            "country": "Spain",
            "lat": "36.0105",
            "long": "-5.6005",
            "url": ""
          }
        },
        "retailer_rigpu0": {
          "type": "retailer",
          "settings": {
            "shop": "Be On Blue",
            "address": "Plaça del Dr. Pont 6",
            "zip": "17488",
            "city": "Cadaqués",
            "country": "Spain",
            "lat": "42.2905",
            "long": "3.2805",
            "url": ""
          }
        },
        "retailer_gy46e1": {
          "type": "retailer",
          "settings": {
            "shop": "Be On Blue",
            "address": "Passatge Jimmy Rena 17-19",
            "zip": "17210",
            "city": "Calella de Palafrugell",
            "country": "Spain",
            "lat": "41.8905",
            "long": "3.1805",
            "url": ""
          }
        },
        "retailer_tsywgz": {
          "type": "retailer",
          "settings": {
            "shop": "India Mon Amour",
            "address": "Carrer de Sant Gaudenci 26",
            "zip": "08870",
            "city": "Sitges",
            "country": "Spain",
            "lat": "41.2305",
            "long": "1.8105",
            "url": ""
          }
        },
        "retailer_fiqn2v": {
          "type": "retailer",
          "settings": {
            "shop": "Global",
            "address": "C/ Asunción 12",
            "zip": "41011",
            "city": "Sevilla",
            "country": "Spain",
            "lat": "37.3805",
            "long": "-5.9905",
            "url": ""
          }
        },
        "retailer_jqrp6v": {
          "type": "retailer",
          "settings": {
            "shop": "Safari Blu",
            "address": "Cala Galera box 41/42/43",
            "zip": "58019",
            "city": "Monte Argentario",
            "country": "Italy",
            "lat": "42.4405",
            "long": "11.1705",
            "url": ""
          }
        },
        "retailer_y4k1mn": {
          "type": "retailer",
          "settings": {
            "shop": "Gallery A",
            "address": "Via Abbrescia 83A",
            "zip": "70121",
            "city": "Bari",
            "country": "Italy",
            "lat": "41.1205",
            "long": "16.8705",
            "url": ""
          }
        },
        "retailer_nmi467": {
          "type": "retailer",
          "settings": {
            "shop": "The Family Market",
            "address": "Rathausgasse 62",
            "zip": "3011",
            "city": "Bern",
            "country": "Switzerland",
            "lat": "46.9480",
            "long": "7.4470",
            "url": ""
          }
        },
        "retailer_ldbbot": {
          "type": "retailer",
          "settings": {
            "shop": "Brunello Shoes & Fashion",
            "address": "Kornmarktgasse 5",
            "zip": "6004",
            "city": "Luzern",
            "country": "Switzerland",
            "lat": "47.0505",
            "long": "8.3105",
            "url": ""
          }
        },
        "retailer_xg3yug": {
          "type": "retailer",
          "settings": {
            "shop": "Boutique Mai",
            "address": "Waldstätterstrasse 19",
            "zip": "6003",
            "city": "Luzern",
            "country": "Switzerland",
            "lat": "47.0505",
            "long": "8.3105",
            "url": ""
          }
        },
        "retailer_34fqfq": {
          "type": "retailer",
          "settings": {
            "shop": "Pompons",
            "address": "Forchstrasse 186",
            "zip": "8032",
            "city": "Zürich",
            "country": "Switzerland",
            "lat": "47.3705",
            "long": "8.5705",
            "url": ""
          }
        }
      },
      "block_order": [
        "retailer_ikaf57",
        "retailer_lq23v2",
        "retailer_cshi5q",
        "retailer_zcb27p",
        "retailer_l6cxsz",
        "retailer_plg0vg",
        "retailer_2u3u3c",
        "retailer_f5tr7h",
        "retailer_9465jn",
        "retailer_n504qj",
        "retailer_p11wrf",
        "retailer_eyxc9g",
        "retailer_n48eed",
        "retailer_q95hui",
        "retailer_mzlmvj",
        "retailer_6qogrv",
        "retailer_nv0y3b",
        "retailer_0jkzxh",
        "retailer_qwce9t",
        "retailer_5djhfb",
        "retailer_r8j6qq",
        "retailer_ahbevb",
        "retailer_vy8nmc",
        "retailer_p6dcos",
        "retailer_d6bw5h",
        "retailer_h4s9ov",
        "retailer_a7przh",
        "retailer_jhylf8",
        "retailer_begqpb",
        "retailer_3cil4d",
        "retailer_n6sblw",
        "retailer_twilut",
        "retailer_ichg1d",
        "retailer_sf3z15",
        "retailer_c9ul36",
        "retailer_ngytrc",
        "retailer_h1wnvf",
        "retailer_gtlnyf",
        "retailer_9mk2tx",
        "retailer_wt4pv3",
        "retailer_ma8j3c",
        "retailer_gu5tfz",
        "retailer_py2607",
        "retailer_e7cbkr",
        "retailer_m7xmxt",
        "retailer_k1altt",
        "retailer_9lnpiw",
        "retailer_9zp6hr",
        "retailer_fb56ic",
        "retailer_ioabfq",
        "retailer_6tilnb",
        "retailer_0pujx7",
        "retailer_6gz867",
        "retailer_egc921",
        "retailer_53jxzo",
        "retailer_1cqu40",
        "retailer_9v4i6i",
        "retailer_smby62",
        "retailer_ccdgxa",
        "retailer_rfzi1i",
        "retailer_xonqh3",
        "retailer_ppu08j",
        "retailer_i4cyqr",
        "retailer_inlqfw",
        "retailer_qhjfcb",
        "retailer_5fjpt9",
        "retailer_lxpyyi",
        "retailer_fppa2f",
        "retailer_rigpu0",
        "retailer_gy46e1",
        "retailer_tsywgz",
        "retailer_fiqn2v",
        "retailer_jqrp6v",
        "retailer_y4k1mn",
        "retailer_nmi467",
        "retailer_ldbbot",
        "retailer_xg3yug",
        "retailer_34fqfq"
      ],
      "name": "Retailers Data",
      "settings": {}
    },
    "retailers_map_Xk8mPq": {
      "type": "retailers-map",
      "settings": {
        "title": "Find a Retailer",
        "mapbox_token": "pk.eyJ1IjoibWF0dGhla2ltIiwiYSI6ImNrdjZmdW4ydjFibXUydm8wNmoxOWxua3cifQ.t3zhCOwIdsJh180Kgukq8Q",
        "map_style": "mapbox://styles/matthekim/ckv6gc88y0c9u15t5ppk1horn",
        "initial_zoom": 6,
        "marker_color": "#000000",
        "full_width": false,
        "show_list": true,
        "padding_top": 0,
        "padding_bottom": 36
      }
    },
    "retailers_map_spacer": {
      "type": "retailers-map-spacer",
      "settings": {}
    }
  },
  "order": [
    "main",
    "retailers_data_9wV6H8",
    "retailers_map_Xk8mPq",
    "retailers_map_spacer"
  ]
}